%1:ts,UTC time (converted),2:lat,3:lon,4:sog,5:rot,6:cog,7:yaw,8:pitch,9:roll,10:rpm_stb,11:rpm_port,12:temp_stb,13:temp_port,14:thr_stb,15:thr_port,16:cog_d,17:sog_d,18:rot_d,19:power_stb,20:power_port,21:power_payload,22:power_other
1557989087,5/16/2019 6:44:47:47,0,0,0,0,0,0,0,0,0,0,0,0,0,0,nan,nan,nan,1,0.9,8.4,9.4
1557989088,5/16/2019 6:44:47:67,1.10723435,0.18148935,0.08,-0.010105,0,0.94389,0.006921,0.002833,0,0,0,0,0,0,nan,nan,nan,1,0.9,8.4,9.7
1557989088,5/16/2019 6:44:47:87,1.10723435,0.18148936,0.07,-0.02996,0,0.94139,0.003794,0.002522,0,0,0,0,0,0,nan,nan,nan,1,0.9,8.4,9.7
1557989088,5/16/2019 6:44:48:07,1.10723436,0.18148936,0.07,-0.021968,0,0.938874,0.003033,0.004179,0,0,0,0,0,0,nan,nan,nan,1,0.9,8.4,9.7
1557989088,5/16/2019 6:44:48:27,1.10723436,0.18148936,0.07,-0.008014,0,0.937747,0.003351,0.007339,0,0,0,0,0,0,nan,nan,nan,1,0.9,8.4,9.7
1557989088,5/16/2019 6:44:48:47,1.10723436,0.18148937,0.07,0.000458,0,0.936883,0.003299,0.006291,0,0,0,0,0,0,nan,nan,nan,1,0.9,8.4,9.7
1557989089,5/16/2019 6:44:48:67,1.10723436,0.18148937,0.06,0.002722,0,0.936098,0.006171,-0.00056,0,0,0,0,0,0,nan,nan,nan,1,0.9,8.4,9.7
1557989089,5/16/2019 6:44:48:87,1.10723436,0.18148937,0.05,-0.004273,0,0.934425,0.010607,-0.002923,0,0,0,0,0,0,nan,nan,nan,1,0.9,8.4,9.7
1557989089,5/16/2019 6:44:49:07,1.10723437,0.18148937,0.06,-0.007932,0,0.934043,0.011702,0.003641,0,0,0,0,0,0,nan,nan,nan,1,0.9,8.5,9.9
1557989089,5/16/2019 6:44:49:27,1.10723437,0.18148938,0.06,-0.00945,0,0.933216,0.00955,0.010648,0,0,0,0,0,0,nan,nan,nan,1,0.9,8.5,9.9
1557989089,5/16/2019 6:44:49:47,1.10723437,0.18148938,0.05,-0.006455,0,0.932364,0.007788,0.009591,0,0,0,0,0,0,nan,nan,nan,1,0.9,8.5,9.9
1557989090,5/16/2019 6:44:49:67,1.10723437,0.18148938,0.04,-0.009862,0,0.931351,0.007062,0.003059,0,0,0,0,0,0,nan,nan,nan,1,0.9,8.5,9.9
1557989090,5/16/2019 6:44:49:87,1.10723438,0.18148938,0.05,-0.004166,0,0.932038,0.006473,-0.003116,0,0,0,0,0,0,nan,nan,nan,1,0.9,8.5,9.9
1557989090,5/16/2019 6:44:50:07,1.10723438,0.18148939,0.04,-0.010003,0,0.931592,0.005503,-0.003519,0,0,0,0,0,0,nan,nan,nan,1,0.9,8.4,10.2
1557989090,5/16/2019 6:44:50:27,1.10723438,0.18148939,0.05,-0.002473,0,0.931805,0.006008,-0.000258,0,0,0,0,0,0,nan,nan,nan,1,0.9,8.4,10.2
1557989090,5/16/2019 6:44:50:47,1.10723438,0.18148939,0.04,-0.004134,0,0.932032,0.009399,0.01138,0,0,0,0,0,0,nan,nan,nan,1,0.9,8.4,10.2
1557989091,5/16/2019 6:44:50:67,1.10723438,0.18148939,0.04,-0.007416,0,0.9316,0.010249,0.010676,0,0,0,0,0,0,nan,nan,nan,1,0.9,8.4,10.2
1557989091,5/16/2019 6:44:50:87,1.10723439,0.18148939,0.04,-0.003847,0,0.931024,0.008057,0.000063,0,0,0,0,0,0,nan,nan,nan,1,0.9,8.4,10.2
1557989091,5/16/2019 6:44:51:07,1.10723439,0.18148939,0.04,0.001054,0,0.931383,0.006207,-0.005183,0,0,0,0,0,0,nan,nan,nan,1,0.9,8.4,10
1557989091,5/16/2019 6:44:51:27,1.10723439,0.18148939,0.04,-0.0095,0,0.931241,0.007966,-0.002765,0,0,0,0,0,0,nan,nan,nan,1,0.9,8.4,10
1557989091,5/16/2019 6:44:51:47,1.1072344,0.1814894,0.04,-0.010481,0,0.93049,0.011981,0.007329,0,0,0,0,0,0,nan,nan,nan,1,0.9,8.4,10
1557989092,5/16/2019 6:44:51:67,1.1072344,0.1814894,0.04,-0.001742,0,0.930775,0.011462,0.011779,0,0,0,0,0,0,nan,nan,nan,1,0.9,8.4,10
1557989092,5/16/2019 6:44:51:87,1.1072344,0.1814894,0.04,-0.004788,0,0.930519,0.008901,0.008311,0,0,0,0,0,0,nan,nan,nan,1,0.9,8.4,10
1557989092,5/16/2019 6:44:52:07,1.1072344,0.1814894,0.03,0.003338,0,0.930301,0.007899,-0.000553,0,0,0,0,0,0,nan,nan,nan,1,0.9,8.4,9.4
1557989092,5/16/2019 6:44:52:27,1.10723441,0.18148941,0.03,0.002066,0,0.930981,0.008671,-0.008357,0,0,0,0,0,0,nan,nan,nan,1,0.9,8.4,9.4
1557989092,5/16/2019 6:44:52:47,1.10723441,0.18148941,0.03,0.006794,0,0.932163,0.006893,-0.003066,0,0,0,0,0,0,nan,nan,nan,1,0.9,8.4,9.4
1557989093,5/16/2019 6:44:52:67,1.10723441,0.18148941,0.05,-0.006364,0,0.933091,0.006467,0.006806,0,0,0,0,0,0,nan,nan,nan,1,0.9,8.4,9.4
1557989093,5/16/2019 6:44:52:87,1.10723441,0.18148942,0.03,-0.004799,0,0.932986,0.011476,0.014468,0,0,0,0,0,0,nan,nan,nan,1,0.9,8.4,9.4
1557989093,5/16/2019 6:44:53:07,1.10723441,0.18148942,0.02,0.007108,0,0.932982,0.016431,0.013393,0,0,0,0,0,0,nan,nan,nan,0.5,0.7,8.5,9.6
1557989093,5/16/2019 6:44:53:27,1.10723441,0.18148943,0.03,-0.003701,0,0.933357,0.016782,0.006406,0,0,0,0,0,0,nan,nan,nan,0.5,0.7,8.5,9.6
1557989093,5/16/2019 6:44:53:47,1.10723442,0.18148943,0.02,-0.000168,0,0.934022,0.007775,-0.004538,0,0,0,0,0,0,nan,nan,nan,0.5,0.7,8.5,9.6
1557989094,5/16/2019 6:44:53:67,1.10723442,0.18148943,0.03,-0.002452,0,0.935055,0.001893,-0.006459,0,0,0,0,0,0,nan,nan,nan,0.5,0.7,8.5,9.6
1557989094,5/16/2019 6:44:53:87,1.10723442,0.18148944,0.03,0.009299,0,0.936544,0.004483,0.000386,0,0,0,0,0,0,nan,nan,nan,0.5,0.7,8.5,9.6
1557989094,5/16/2019 6:44:54:07,1.10723442,0.18148944,0.02,-0.005236,0,0.938184,0.011701,0.008082,0,0,0,0,0,0,nan,nan,nan,-0.1,-0.1,8.4,9.6
1557989094,5/16/2019 6:44:54:27,1.10723442,0.18148944,0.02,0.005373,0,0.938978,0.015008,0.009777,0,0,0,0,0,0,nan,nan,nan,-0.1,-0.1,8.4,9.6
1557989094,5/16/2019 6:44:54:47,1.10723442,0.18148944,0.03,-0.001443,0,0.939526,0.012985,0.006804,0,0,0,0,0,0,nan,nan,nan,-0.1,-0.1,8.4,9.6
1557989095,5/16/2019 6:44:54:67,1.10723443,0.18148945,0.03,0.013532,0,0.942098,0.005165,-0.001377,0,0,0,0,0,0,nan,nan,nan,-0.1,-0.1,8.4,9.6
1557989095,5/16/2019 6:44:54:87,1.10723443,0.18148945,0.02,0.007516,0,0.944453,0.003108,-0.005803,0,0,0,0,0,0,nan,nan,nan,-0.1,-0.1,8.4,9.6
1557989095,5/16/2019 6:44:55:07,1.10723443,0.18148945,0.02,0.00422,0,0.946812,0.007982,-0.001247,0,0,0,0,0,0,nan,nan,nan,0,-0.1,8.4,9.6
1557989095,5/16/2019 6:44:55:27,1.10723443,0.18148945,0.03,-0.001183,0,0.948545,0.012082,0.010884,0,0,0,0,0,0,nan,nan,nan,0,-0.1,8.4,9.6
1557989095,5/16/2019 6:44:55:47,1.10723443,0.18148945,0.04,0.00294,0,0.950077,0.011868,0.01586,0,0,0,0,0,0,nan,nan,nan,0,-0.1,8.4,9.6
1557989096,5/16/2019 6:44:55:67,1.10723443,0.18148946,0.03,0.002225,0,0.951651,0.010131,0.007589,0,0,0,0,0,0,nan,nan,nan,0,-0.1,8.4,9.6
1557989096,5/16/2019 6:44:55:87,1.10723443,0.18148946,0.01,0.006237,0,0.953251,0.008152,-0.006109,0,0,0,0,0,0,nan,nan,nan,0,-0.1,8.4,9.6
1557989096,5/16/2019 6:44:56:07,1.10723443,0.18148946,0.01,0.01976,0,0.957527,0.003201,-0.013268,0,0,0,0,0,0,nan,nan,nan,0,0.3,8.4,9.6
1557989096,5/16/2019 6:44:56:27,1.10723443,0.18148946,0.04,0.010259,0,0.960235,0.001386,-0.005733,0,0,0,0,0,0,nan,nan,nan,0,0.3,8.4,9.6
1557989096,5/16/2019 6:44:56:47,1.10723443,0.18148947,0.04,0.005303,0,0.963452,0.006434,0.01346,0,0,0,0,0,0,nan,nan,nan,0,0.3,8.4,9.6
1557989097,5/16/2019 6:44:56:67,1.10723443,0.18148947,0.04,0.002484,0,0.965879,0.015281,0.019143,0,0,0,0,0,0,nan,nan,nan,0.7,0.3,8.4,9.6
1557989097,5/16/2019 6:44:56:87,1.10723443,0.18148947,0.01,0.006173,0,0.968904,0.019478,0.011226,0,0,0,0,0,0,nan,nan,nan,0.7,0.3,8.4,9.6
1557989097,5/16/2019 6:44:57:07,1.10723443,0.18148947,0.01,0.006427,0,0.971453,0.012672,-0.003693,0,0,0,0,0,0,nan,nan,nan,0.7,0.9,8.5,9.7
1557989097,5/16/2019 6:44:57:27,1.10723443,0.18148947,0.02,0.010373,0,0.973639,0.005572,-0.007634,0,0,0,0,0,0,nan,nan,nan,0.7,0.9,8.5,9.7
1557989097,5/16/2019 6:44:57:47,1.10723443,0.18148948,0.04,0.02283,0,0.97788,0.000625,-0.004729,0,0,0,0,0,0,nan,nan,nan,0.7,0.9,8.5,9.7
1557989098,5/16/2019 6:44:57:67,1.10723443,0.18148948,0.04,0.014364,0,0.983802,0.004197,0.002944,0,0,0,0,0,0,nan,nan,nan,1,0.9,8.5,9.7
1557989098,5/16/2019 6:44:57:87,1.10723443,0.18148948,0.03,0.019187,0,0.987325,0.012001,0.006465,0,0,0,0,0,0,nan,nan,nan,1,0.9,8.5,9.7
1557989098,5/16/2019 6:44:58:07,1.10723443,0.18148948,0.02,0.023586,0,0.991245,0.01674,0.007553,0,0,0,0,0,0,nan,nan,nan,1,0.9,8.5,9.6
1557989098,5/16/2019 6:44:58:27,1.10723442,0.18148948,0.02,0.021897,0,0.994204,0.013819,0.005563,0,0,0,0,0,0,nan,nan,nan,1,0.9,8.5,9.6
1557989098,5/16/2019 6:44:58:47,1.10723442,0.18148948,0.03,0.02243,0,0.998193,0.006974,0.000688,0,0,0,0,0,0,nan,nan,nan,1,0.9,8.5,9.6
1557989099,5/16/2019 6:44:58:67,1.10723442,0.18148949,0.02,0.00914,0,1.002508,0.004936,0.000122,0,0,0,0,0,0,nan,nan,nan,1.1,0.9,8.5,9.6
1557989099,5/16/2019 6:44:58:87,1.10723442,0.18148949,0.03,0.02354,0,1.005984,0.006938,0.001647,0,0,0,0,0,0,nan,nan,nan,1.1,0.9,8.5,9.6
1557989099,5/16/2019 6:44:59:07,1.10723441,0.18148949,0.03,0.014157,0,1.011249,0.010732,0.001941,0,0,0,0,0,0,nan,nan,nan,1.1,0.9,8.4,9.5
1557989099,5/16/2019 6:44:59:27,1.10723441,0.1814895,0.02,0.012333,0,1.014248,0.010334,0.001386,0,0,0,0,0,0,nan,nan,nan,1.1,0.9,8.4,9.5
1557989099,5/16/2019 6:44:59:47,1.10723441,0.1814895,0.02,0.011255,0,1.017221,0.009383,0.003126,0,0,0,0,0,0,nan,nan,nan,1.1,0.9,8.4,9.5
1557989100,5/16/2019 6:44:59:67,1.10723441,0.1814895,0.03,0.014561,0,1.02106,0.01004,0.006092,0,0,0,0,0,0,nan,nan,nan,1,0.9,8.4,9.5
1557989100,5/16/2019 6:44:59:87,1.10723441,0.1814895,0.04,0.010767,0,1.024451,0.011696,0.004605,0,0,0,0,0,0,nan,nan,nan,1,0.9,8.4,9.5
1557989100,5/16/2019 6:45:00:07,1.1072344,0.18148951,0.02,0.010695,0,1.029581,0.011123,-0.001912,0,0,0,0,0,0,nan,nan,nan,1,0.9,8.4,9.7
1557989100,5/16/2019 6:45:00:27,1.1072344,0.18148951,0.01,0.009596,0,1.032721,0.009891,-0.002548,0,0,0,0,0,0,nan,nan,nan,1,0.9,8.4,9.7
1557989100,5/16/2019 6:45:00:47,1.1072344,0.18148951,0.02,0.013831,0,1.035273,0.009794,0.000656,0,0,0,0,0,0,nan,nan,nan,1,0.9,8.4,9.7
1557989101,5/16/2019 6:45:00:67,1.1072344,0.18148951,0.05,0.01012,0,1.039065,0.011181,0.00913,0,0,0,0,0,0,nan,nan,nan,1,0.9,8.4,9.7
1557989101,5/16/2019 6:45:00:87,1.1072344,0.18148951,0.04,0.016647,0,1.043319,0.010927,0.008845,0,0,0,0,0,0,nan,nan,nan,1,0.9,8.4,9.7
1557989101,5/16/2019 6:45:01:07,1.1072344,0.18148951,0.03,0.004589,0,1.045572,0.009576,0.003103,0,0,0,0,0.01,0,nan,nan,nan,1,0.9,8.4,9.7
1557989101,5/16/2019 6:45:01:27,1.10723439,0.18148951,0.02,0.01445,0,1.048988,0.007746,-0.002498,0,0,0,0,0.01,0,nan,nan,nan,1,0.9,8.4,9.7
1557989101,5/16/2019 6:45:01:47,1.10723439,0.18148951,0.02,0.017551,0,1.053088,0.007655,-0.001988,0,0,0,0,0.01,0,nan,nan,nan,1,0.9,8.4,9.7
1557989102,5/16/2019 6:45:01:67,1.10723439,0.18148951,0.05,0.002536,0,1.056986,0.009779,0.005405,0,0,0,0,0.01,0,nan,nan,nan,1,0.9,8.4,9.6
1557989102,5/16/2019 6:45:01:87,1.10723438,0.18148951,0.05,0.015541,0,1.058788,0.011194,0.009838,0,0,0,0,0.01,0,nan,nan,nan,1,0.9,8.4,9.6
1557989102,5/16/2019 6:45:02:07,1.10723438,0.18148951,0.03,0.007058,0,1.061762,0.011572,0.009707,0,0,0,0,0.01,0,nan,nan,nan,1,0.9,8.4,9.6
1557989102,5/16/2019 6:45:02:27,1.10723438,0.18148951,0.02,0.008902,0,1.065176,0.010551,0.001029,0,0,0,0,0.01,0,nan,nan,nan,1,0.9,8.4,9.6
1557989102,5/16/2019 6:45:02:47,1.10723438,0.18148951,0.03,-0.002144,0,1.069187,0.011683,-0.003898,0,0,0,0,0.01,0.01,nan,nan,nan,1,0.9,8.4,9.6
1557989103,5/16/2019 6:45:02:67,1.10723437,0.18148951,0.03,0.013347,0,1.072021,0.010749,-0.000549,0,0,0,0,0.01,0.01,nan,nan,nan,1,0.9,8.4,9.7
1557989103,5/16/2019 6:45:02:87,1.10723437,0.18148951,0.04,0.018769,0,1.074876,0.008609,0.004873,0,0,0,0,0.01,0.01,nan,nan,nan,1,0.9,8.4,9.7
1557989103,5/16/2019 6:45:03:07,1.10723437,0.18148951,0.03,0.005636,0,1.077916,0.00788,0.008154,0,0,0,0,0.01,0.01,nan,nan,nan,1,0.9,8.4,9.7
1557989103,5/16/2019 6:45:03:27,1.10723436,0.18148951,0.01,0.007026,0,1.079632,0.010258,0.005668,0,0,0,0,0.01,0.01,nan,nan,nan,1,0.9,8.4,9.7
1557989103,5/16/2019 6:45:03:47,1.10723436,0.18148951,0.03,0.016831,0,1.081906,0.013086,0.003434,0,0,0,0,0.01,0.01,nan,nan,nan,1,0.9,8.4,9.7
1557989104,5/16/2019 6:45:03:67,1.10723436,0.18148951,0.03,0.009205,0,1.083822,0.013426,0.002886,0,0,0,0,0.01,0.01,nan,nan,nan,1,0.9,8.4,9.6
1557989104,5/16/2019 6:45:03:87,1.10723435,0.18148951,0.03,0.01909,0,1.08686,0.009722,0.0027,0,0,0,0,0.01,0.01,nan,nan,nan,1,0.9,8.4,9.6
1557989104,5/16/2019 6:45:04:07,1.10723435,0.18148951,0.03,0.020247,0,1.090033,0.006639,0.000825,0,0,0,0,0.01,0.01,nan,nan,nan,1,0.9,8.4,9.6
1557989104,5/16/2019 6:45:04:27,1.10723435,0.18148951,0.03,0.007453,0,1.09265,0.008381,0.000248,0,0,0,0,0.01,0.01,nan,nan,nan,1,0.9,8.4,9.6
1557989104,5/16/2019 6:45:04:47,1.10723434,0.18148951,0.02,0.00774,0,1.095403,0.012936,0.00179,0,0,0,0,0.01,0.01,nan,nan,nan,1,0.9,8.4,9.6
1557989105,5/16/2019 6:45:04:67,1.10723434,0.18148951,0.03,0.002275,0,1.09682,0.01462,0.003399,0,0,0,0,0.01,0.01,nan,nan,nan,1,0.9,8.4,9.4
1557989105,5/16/2019 6:45:04:87,1.10723434,0.18148951,0.02,0.007607,0,1.098751,0.013333,0.004873,0,0,0,0,0.01,0.01,nan,nan,nan,1,0.9,8.4,9.4
1557989105,5/16/2019 6:45:05:07,1.10723434,0.18148951,0.03,0.015039,0,1.100882,0.010119,0.0055,0,0,0,0,0.01,0.01,nan,nan,nan,1,0.9,8.4,9.4
1557989105,5/16/2019 6:45:05:27,1.10723433,0.18148951,0.02,0.007024,0,1.104314,0.008214,0.003531,0,0,0,0,0.01,0.01,nan,nan,nan,1,0.9,8.4,9.4
1557989105,5/16/2019 6:45:05:47,1.10723433,0.18148951,0.04,0.004168,0,1.106093,0.01031,0.000573,0,0,0,0,0.01,0.01,nan,nan,nan,1,0.9,8.4,9.4
1557989106,5/16/2019 6:45:05:67,1.10723433,0.18148951,0.02,0.004854,0,1.108251,0.012034,0.000998,0,0,0,0,0.01,0.01,nan,nan,nan,1,0.9,8.4,9.4
1557989106,5/16/2019 6:45:05:87,1.10723433,0.18148951,0.03,0.01322,0,1.110207,0.010131,0.004105,0,0,0,0,0.01,0.01,nan,nan,nan,1,0.9,8.4,9.4
1557989106,5/16/2019 6:45:06:07,1.10723432,0.18148951,0.05,-0.000538,0,1.112356,0.00839,0.005729,0,0,0,0,0.01,0.01,nan,nan,nan,1,0.9,8.4,9.4
1557989106,5/16/2019 6:45:06:27,1.10723432,0.18148952,0.03,0.008143,0,1.113668,0.0115,0.002612,0,0,0,0,0.01,0.01,nan,nan,nan,1,0.9,8.4,9.4
1557989106,5/16/2019 6:45:06:47,1.10723431,0.18148951,0.02,0.007634,0,1.114928,0.014485,-0.000899,0,0,0,0,0.01,0.01,nan,nan,nan,1,0.9,8.4,9.4
1557989107,5/16/2019 6:45:06:67,1.10723431,0.18148951,0.02,-0.008664,0,1.116327,0.015962,-0.001803,0,0,0,0,0.01,0.01,nan,nan,nan,1,0.9,8.4,9.3
1557989107,5/16/2019 6:45:06:87,1.10723431,0.18148951,0.03,0.003101,0,1.117598,0.011396,0.003881,0,0,0,0,0.01,0.01,nan,nan,nan,1,0.9,8.4,9.3
1557989107,5/16/2019 6:45:07:07,1.10723431,0.18148951,0.03,0.006265,0,1.118282,0.005962,0.00951,0,0,0,0,0.01,0.01,nan,nan,nan,1,0.9,8.4,9.3
1557989107,5/16/2019 6:45:07:27,1.1072343,0.18148951,0.03,0.009386,0,1.119862,0.00209,0.010866,0,0,0,0,0.01,0.01,nan,nan,nan,1,0.9,8.4,9.3
1557989107,5/16/2019 6:45:07:47,1.1072343,0.18148951,0.03,0.005842,0,1.12144,0.005852,0.004798,0,0,0,0,0.01,0.01,nan,nan,nan,1,0.9,8.4,9.3
1557989108,5/16/2019 6:45:07:67,1.1072343,0.18148951,0.03,0.000994,0,1.123007,0.010476,-0.002648,0,0,0,0,0.01,0.01,nan,nan,nan,1,0.9,8.4,9.1
1557989108,5/16/2019 6:45:07:87,1.1072343,0.18148951,0.02,0.005873,0,1.125211,0.014338,-0.005637,0,0,0,0,0.01,0.01,nan,nan,nan,1,0.9,8.4,9.1
1557989108,5/16/2019 6:45:08:07,1.10723429,0.18148951,0.03,0.00309,0,1.126657,0.012229,-0.001625,0,0,0,0,0.01,0.01,nan,nan,nan,1,0.9,8.4,9.1
1557989108,5/16/2019 6:45:08:27,1.10723429,0.18148951,0.03,0.000582,0,1.127439,0.007281,0.008907,0,0,0,0,0.01,0.01,nan,nan,nan,1,0.9,8.4,9.1
1557989108,5/16/2019 6:45:08:47,1.10723429,0.18148951,0.02,0.007156,0,1.127989,0.006436,0.012787,0,0,0,0,0.01,0.01,nan,nan,nan,1,0.9,8.4,9.1
1557989109,5/16/2019 6:45:08:67,1.10723429,0.1814895,0.02,0.001996,0,1.129988,0.010744,0.008133,0,0,0,0,0.01,0.01,nan,nan,nan,1,0.9,8.4,9.3
1557989109,5/16/2019 6:45:08:87,1.10723429,0.1814895,0.03,-0.000931,0,1.131689,0.013266,0.000706,0,0,0,0,0.01,0.01,nan,nan,nan,1,0.9,8.4,9.3
1557989109,5/16/2019 6:45:09:07,1.10723429,0.1814895,0.02,0.001654,0,1.133779,0.011814,-0.005888,0,0,0,0,0.01,0.01,nan,nan,nan,1,0.9,8.4,9.3
1557989109,5/16/2019 6:45:09:27,1.10723428,0.1814895,0.01,0.004095,0,1.135145,0.009366,-0.003563,0,0,0,0,0.01,0.01,nan,nan,nan,1,0.9,8.4,9.3
1557989109,5/16/2019 6:45:09:47,1.10723428,0.18148949,0.02,-0.000539,0,1.136731,0.008301,0.002408,0,0,0,0,0.01,0.01,nan,nan,nan,1,0.9,8.4,9.3
1557989110,5/16/2019 6:45:09:67,1.10723428,0.18148949,0.03,0.003055,0,1.138523,0.009182,0.010652,0,0,0,0,0.01,0.01,nan,nan,nan,1,0.9,8.4,9.3
1557989110,5/16/2019 6:45:09:87,1.10723428,0.18148949,0.02,-0.003237,0,1.140551,0.012222,0.014557,0,0,0,0,0.01,0.01,nan,nan,nan,1,0.9,8.4,9.3
1557989110,5/16/2019 6:45:10:07,1.10723427,0.18148949,0.03,0.010142,0,1.141796,0.01448,0.009977,0,0,0,0,0.01,0.01,nan,nan,nan,1,0.9,8.4,9.3
1557989110,5/16/2019 6:45:10:27,1.10723427,0.18148948,0.02,0.006119,0,1.144318,0.012317,-0.001877,0,0,0,0,0.01,0.01,nan,nan,nan,1,0.9,8.4,9.3
1557989110,5/16/2019 6:45:10:47,1.10723427,0.18148948,0.02,0.006085,0,1.147383,0.007443,-0.008455,0,0,0,0,0.01,0.01,nan,nan,nan,1,0.9,8.4,9.3
1557989111,5/16/2019 6:45:10:67,1.10723427,0.18148948,0.02,0.004495,0,1.149939,0.007897,-0.002101,0,0,0,0,0.01,0.01,nan,nan,nan,1,0.9,8.4,9.4
1557989111,5/16/2019 6:45:10:87,1.10723427,0.18148948,0.03,0.002034,0,1.151584,0.014752,0.008734,0,0,0,0,0.01,0.01,nan,nan,nan,1,0.9,8.4,9.4
1557989111,5/16/2019 6:45:11:07,1.10723426,0.18148947,0.04,0.004162,0,1.153327,0.018915,0.015082,0,0,0,0,0.01,0.01,nan,nan,nan,1,0.9,8.4,9.4
1557989111,5/16/2019 6:45:11:27,1.10723426,0.18148947,0.02,0.011827,0,1.155266,0.015758,0.013369,0,0,0,0,0.01,0.01,nan,nan,nan,1,0.9,8.4,9.4
1557989111,5/16/2019 6:45:11:47,1.10723425,0.18148947,0.02,0.002413,0,1.158231,0.001725,-0.002114,0,0,0,0,0.01,0.01,nan,nan,nan,1,0.9,8.4,9.4
1557989112,5/16/2019 6:45:11:67,1.10723425,0.18148947,0.01,0.008837,0,1.160257,0.001606,-0.005549,0,0,0,0,0.01,0.01,nan,nan,nan,1,0.9,8.4,9.3
1557989112,5/16/2019 6:45:11:87,1.10723425,0.18148946,0.02,0.001467,0,1.163661,0.010018,-0.000016,0,0,0,0,0.01,0.01,nan,nan,nan,1,0.9,8.4,9.3
1557989112,5/16/2019 6:45:12:07,1.10723424,0.18148946,0.04,-0.006815,0,1.16621,0.020299,0.011132,0,0,0,0,0.01,0.01,nan,nan,nan,1,0.8,8.4,9.3
1557989112,5/16/2019 6:45:12:27,1.10723424,0.18148946,0.03,0.011563,0,1.167652,0.019744,0.012886,0,0,0,0,0.01,0.01,nan,nan,nan,1,0.8,8.4,9.3
1557989112,5/16/2019 6:45:12:47,1.10723424,0.18148946,0.02,0.00964,0,1.1692,0.014068,0.008252,0,0,0,0,0.01,0.01,nan,nan,nan,1,0.8,8.4,9.3
1557989113,5/16/2019 6:45:12:67,1.10723424,0.18148945,0.02,0.006489,0,1.171609,0.005681,-0.000422,0,0,0,0,0.01,0.01,nan,nan,nan,1,0.8,8.6,9.4
1557989113,5/16/2019 6:45:12:87,1.10723424,0.18148945,0.02,-0.003312,0,1.175062,0.002959,-0.00466,0,0,0,0,0.01,0.01,nan,nan,nan,1,0.8,8.6,9.4
1557989113,5/16/2019 6:45:13:07,1.10723423,0.18148945,0.03,0.007202,0,1.17746,0.006981,-0.000263,0,0,0,0,0.01,0.01,nan,nan,nan,1,0.9,8.6,9.4
1557989113,5/16/2019 6:45:13:27,1.10723423,0.18148945,0.03,0.00647,0,1.180432,0.013339,0.007509,0,0,0,0,0.01,0.01,nan,nan,nan,1,0.9,8.6,9.4
1557989113,5/16/2019 6:45:13:47,1.10723423,0.18148945,0.02,0.015762,0,1.18333,0.016695,0.012198,0,0,0,0,0.01,0.01,nan,nan,nan,1,0.9,8.6,9.4
1557989114,5/16/2019 6:45:13:67,1.10723422,0.18148945,0.02,0.010037,0,1.185266,0.015394,0.010938,0,0,0,0,0.01,0.01,nan,nan,nan,1,0.9,8.4,9.3
1557989114,5/16/2019 6:45:13:87,1.10723422,0.18148945,0.01,0.010125,0,1.188064,0.010249,0.003952,0,0,0,0,0.01,0.01,nan,nan,nan,1,0.9,8.4,9.3
1557989114,5/16/2019 6:45:14:07,1.10723421,0.18148945,0.01,0.009724,0,1.19228,0.005642,-0.003879,0,0,0,0,0.01,0.01,nan,nan,nan,1,0.9,8.4,9.3
1557989114,5/16/2019 6:45:14:29,1.10723421,0.18148945,0.01,0.01496,0,1.193539,0.005505,-0.003546,0,0,0,0,0.01,0.01,nan,nan,nan,1,0.9,8.4,9.3
1557989114,5/16/2019 6:45:14:47,1.1072342,0.18148944,0.05,0.00489,0,1.197819,0.013517,0.008893,0,0,0,0,0.01,0.01,nan,nan,nan,1,0.9,8.4,9.3
1557989115,5/16/2019 6:45:14:67,1.1072342,0.18148944,0.03,0.008711,0,1.200612,0.015906,0.010833,0,0,0,0,0.01,0.01,nan,nan,nan,1,0.9,8.4,9.3
1557989115,5/16/2019 6:45:14:87,1.10723419,0.18148944,0.02,0.013253,0,1.204644,0.010514,0.003709,0,0,0,0,0.01,0.01,nan,nan,nan,1,0.9,8.4,9.3
1557989115,5/16/2019 6:45:15:07,1.10723418,0.18148944,0,0.010314,0,1.207417,0.003473,-0.002337,0,0,0,0,0.01,0.01,nan,nan,nan,1,0.9,8.4,9.2
1557989115,5/16/2019 6:45:15:27,1.10723418,0.18148944,0.02,0.011822,0,1.210133,0.002641,-0.00304,0,0,0,0,0.01,0.01,nan,nan,nan,1,0.9,8.4,9.2
1557989115,5/16/2019 6:45:15:47,1.10723417,0.18148944,0.02,0.009225,0,1.214191,0.012873,0.004845,0,0,0,0,0.01,0.01,nan,nan,nan,1,0.9,8.4,9.2
1557989116,5/16/2019 6:45:15:67,1.10723417,0.18148944,0.03,0.012619,0,1.216423,0.018233,0.009488,0,0,0,0,0.01,0.01,nan,nan,nan,1,0.9,8.4,9.2
1557989116,5/16/2019 6:45:15:87,1.10723416,0.18148944,0.03,0.003634,0,1.218887,0.017869,0.010329,0,0,0,0,0.01,0.01,nan,nan,nan,1,0.9,8.4,9.2
1557989116,5/16/2019 6:45:16:07,1.10723416,0.18148944,0.01,0.006939,0,1.221539,0.009808,0.003865,0,0,0,0,0.01,0.01,nan,nan,nan,1,0.9,8.5,9.3
1557989116,5/16/2019 6:45:16:27,1.10723415,0.18148944,0.02,0.009867,0,1.224516,0.002641,-0.001338,0,0,0,0,0.01,0.01,nan,nan,nan,1,0.9,8.5,9.3
1557989116,5/16/2019 6:45:16:47,1.10723415,0.18148944,0.02,0.010865,0,1.228194,0.002713,0.001073,0,0,0,0,0.01,0.01,nan,nan,nan,1,0.9,8.5,9.3
1557989117,5/16/2019 6:45:16:67,1.10723414,0.18148944,0.04,0.013065,0,1.230958,0.007367,0.005054,0,0,0,0,0.01,0.01,nan,nan,nan,1,0.9,8.5,9.3
1557989117,5/16/2019 6:45:16:87,1.10723414,0.18148944,0.03,0.005323,0,1.234232,0.012923,0.007322,0,0,0,0,0.01,0.01,nan,nan,nan,1,0.9,8.5,9.3
1557989117,5/16/2019 6:45:17:07,1.10723413,0.18148944,0.02,0.009981,0,1.237751,0.01467,0.003574,0,0,0,0,0.01,0.01,nan,nan,nan,1,0.9,8.5,9.3
1557989117,5/16/2019 6:45:17:27,1.10723413,0.18148944,0.02,0.007418,0,1.241812,0.009109,0.000844,0,0,0,0,0.01,0.01,nan,nan,nan,1,0.9,8.5,9.3
1557989117,5/16/2019 6:45:17:47,1.10723413,0.18148944,0.02,0.009087,0,1.244514,0.005811,0.002571,0,0,0,0,0.01,0.01,nan,nan,nan,1,0.9,8.5,9.3
1557989118,5/16/2019 6:45:17:67,1.10723412,0.18148944,0.02,0.018009,0,1.246949,0.004436,0.006149,0,0,0,0,0.01,0.01,nan,nan,nan,1,0.9,8.5,9.3
1557989118,5/16/2019 6:45:17:87,1.10723412,0.18148944,0.02,0.016581,0,1.250531,0.006606,0.009351,0,0,0,0,0.01,0.01,nan,nan,nan,1,0.9,8.5,9.3
1557989118,5/16/2019 6:45:18:07,1.10723411,0.18148944,0.02,0.01213,0,1.253794,0.010633,0.008146,0,0,0,0,0.01,0.01,nan,nan,nan,1,0.9,8.4,9.4
1557989118,5/16/2019 6:45:18:27,1.10723411,0.18148944,0.03,0.017108,0,1.255846,0.014028,0.004958,0,0,0,0,0.01,0.01,nan,nan,nan,1,0.9,8.4,9.4
1557989118,5/16/2019 6:45:18:47,1.10723411,0.18148943,0.02,0.005777,0,1.2596,0.015905,-0.001269,0,0,0,0,0.01,0.01,nan,nan,nan,1,0.9,8.4,9.4
1557989119,5/16/2019 6:45:18:67,1.1072341,0.18148943,0.01,0.008278,0,1.26195,0.012205,-0.000786,0,0,0,0,0.01,0.01,nan,nan,nan,1,0.9,8.4,9.4
1557989119,5/16/2019 6:45:18:87,1.1072341,0.18148943,0.02,0.010361,0,1.2643,0.007212,0.002834,0,0,0,0,0.01,0.01,nan,nan,nan,1,0.9,8.4,9.4
1557989119,5/16/2019 6:45:19:07,1.1072341,0.18148942,0.01,0.006047,0,1.26758,0.004798,0.007701,0,0,0,0,0.01,0.01,nan,nan,nan,1,0.8,8.4,9.4
1557989119,5/16/2019 6:45:19:27,1.10723409,0.18148942,0.02,0.003121,0,1.269774,0.008505,0.010165,0,0,0,0,0.01,0.01,nan,nan,nan,1,0.8,8.4,9.4
1557989119,5/16/2019 6:45:19:47,1.10723409,0.18148942,0.02,0.003503,0,1.272794,0.014694,0.010374,0,0,0,0,0.01,0.01,nan,nan,nan,1,0.8,8.4,9.4
1557989120,5/16/2019 6:45:19:67,1.10723408,0.18148942,0.02,0.008779,0,1.27518,0.014993,0.00601,0,0,0,0,0.01,0.01,nan,nan,nan,1,0.8,8.4,9.4
1557989120,5/16/2019 6:45:19:87,1.10723408,0.18148941,0.01,0.002364,0,1.276648,0.012133,0.000858,0,0,0,0,0.01,0.01,nan,nan,nan,1,0.8,8.4,9.4
1557989120,5/16/2019 6:45:20:07,1.10723408,0.18148941,0.01,0.007427,0,1.279623,0.006538,-0.004722,0,0,0,0,0.01,0.01,nan,nan,nan,1,0.9,8.4,9.4
1557989120,5/16/2019 6:45:20:27,1.10723408,0.18148941,0.02,0.003415,0,1.281602,0.005331,0.000216,0,0,0,0,0.01,0.01,nan,nan,nan,1,0.9,8.4,9.4
1557989120,5/16/2019 6:45:20:47,1.10723408,0.18148941,0.02,0.010771,0,1.283724,0.010851,0.011151,0,0,0,0,0.01,0.01,nan,nan,nan,1,0.9,8.4,9.4
1557989121,5/16/2019 6:45:20:67,1.10723407,0.18148941,0.03,0.003054,0,1.285629,0.014321,0.012774,0,0,0,0,0.01,0.01,nan,nan,nan,1,0.9,8.4,9.4
1557989121,5/16/2019 6:45:20:87,1.10723407,0.18148941,0.02,0.008759,0,1.287163,0.012167,0.00549,0,0,0,0,0.01,0.01,nan,nan,nan,1,0.9,8.4,9.4
1557989121,5/16/2019 6:45:21:07,1.10723407,0.18148941,0.01,-0.00036,0,1.288501,0.008129,-0.003457,0,0,0,0,0.01,0.01,nan,nan,nan,1,0.9,8.4,9.1
1557989121,5/16/2019 6:45:21:27,1.10723406,0.1814894,0.01,-0.00203,0,1.289408,0.006733,-0.005656,0,0,0,0,0.01,0.01,nan,nan,nan,1,0.9,8.4,9.1
1557989121,5/16/2019 6:45:21:47,1.10723406,0.1814894,0.02,0.001393,0,1.290006,0.008365,-0.000913,0,0,0,0,0.01,0.01,nan,nan,nan,1,0.9,8.4,9.1
1557989122,5/16/2019 6:45:21:67,1.10723406,0.1814894,0.03,-0.004614,0,1.289536,0.011212,0.011756,0,0,0,0,0.01,0.01,nan,nan,nan,1,0.9,8.4,9.1
1557989122,5/16/2019 6:45:21:87,1.10723405,0.1814894,0.01,-0.011513,0,1.28842,0.011564,0.015747,0,0,0,0,0.01,0.01,nan,nan,nan,1,0.9,8.4,9.1
1557989122,5/16/2019 6:45:22:07,1.10723405,0.1814894,0.01,-0.007438,0,1.287209,0.011291,0.004592,0,0,0,0,0.01,0.01,nan,nan,nan,1,0.9,8.5,9.2
1557989122,5/16/2019 6:45:22:27,1.10723405,0.1814894,0.03,-0.019816,0,1.286318,0.010809,-0.004885,0,0,0,0,0.01,0.01,nan,nan,nan,1,0.9,8.5,9.2
1557989122,5/16/2019 6:45:22:47,1.10723404,0.1814894,0.01,-0.02072,0,1.283143,0.008446,-0.004702,0,0,0,0,0.01,0.01,nan,nan,nan,1,0.9,8.5,9.2
1557989123,5/16/2019 6:45:22:67,1.10723404,0.1814894,0.03,-0.034292,0,1.279588,0.008418,0.003614,0,0,0,0,0.01,0.01,nan,nan,nan,1,0.8,8.5,9.2
1557989123,5/16/2019 6:45:22:87,1.10723404,0.1814894,0.03,-0.023256,0,1.276508,0.010405,0.009933,0,0,0,0,0.01,0.01,nan,nan,nan,1,0.8,8.5,9.2
1557989123,5/16/2019 6:45:23:07,1.10723403,0.1814894,0.03,-0.040481,0,1.272421,0.012371,0.010142,0,0,0,0,0.01,0.01,nan,nan,nan,1,0.8,8.4,9.4
1557989123,5/16/2019 6:45:23:27,1.10723403,0.1814894,0.04,-0.036313,0,1.265685,0.012524,0.003546,0,0,0,0,0.01,0.01,nan,nan,nan,1,0.8,8.4,9.4
1557989123,5/16/2019 6:45:23:47,1.10723403,0.1814894,0.01,-0.026271,0,1.258549,0.008866,-0.00002,0,0,0,0,0.01,0.01,nan,nan,nan,1,0.8,8.4,9.4
1557989124,5/16/2019 6:45:23:67,1.10723403,0.1814894,0.02,-0.040199,0,1.25319,0.008286,0.002165,0,0,0,0,0.01,0.01,nan,nan,nan,1,0.9,8.4,9.4
1557989124,5/16/2019 6:45:23:87,1.10723402,0.1814894,0.03,-0.051869,0,1.247502,0.009862,0.004471,0,0,0,0,0.01,0.01,nan,nan,nan,1,0.9,8.4,9.4
1557989124,5/16/2019 6:45:24:07,1.10723402,0.18148939,0.03,-0.042634,0,1.239389,0.01115,0.005548,0,0,0,0,0.01,0.01,nan,nan,nan,1,0.9,8.4,9.7
1557989124,5/16/2019 6:45:24:27,1.10723402,0.18148939,0.04,-0.034287,0,1.234616,0.009302,0.00555,0,0,0,0,0.01,0.01,nan,nan,nan,1,0.9,8.4,9.7
1557989124,5/16/2019 6:45:24:47,1.10723402,0.18148939,0.02,-0.049722,0,1.228675,0.00648,0.005462,0,0,0,0,0.01,0.01,nan,nan,nan,1,0.9,8.4,9.7
1557989125,5/16/2019 6:45:24:67,1.10723403,0.18148939,0.03,-0.036123,0,1.22052,0.007196,0.00338,0,0,0,0,0.01,0.01,nan,nan,nan,1,0.9,8.4,9.7
1557989125,5/16/2019 6:45:24:87,1.10723403,0.18148939,0.03,-0.042808,0,1.21393,0.010552,0.001299,0,0,0,0,0.01,0.01,nan,nan,nan,1,0.9,8.4,9.7
1557989125,5/16/2019 6:45:25:07,1.10723402,0.18148939,0.03,-0.043917,0,1.205076,0.014535,0.003575,0,0,0,0,0.01,0.01,nan,nan,nan,1,0.9,8.4,9.7
1557989125,5/16/2019 6:45:25:27,1.10723402,0.18148939,0.02,-0.047581,0,1.198527,0.014962,0.007375,0,0,0,0,0.01,0.01,nan,nan,nan,1,0.9,8.4,9.7
1557989125,5/16/2019 6:45:25:47,1.10723402,0.18148938,0.03,-0.045739,0,1.189446,0.013125,0.006435,0,0,0,0,0.01,0.01,nan,nan,nan,1,0.9,8.4,9.7
1557989126,5/16/2019 6:45:25:67,1.10723402,0.18148938,0.04,-0.043578,0,1.182184,0.010959,0.000111,0,0,0,0,0.01,0.01,nan,nan,nan,1,0.9,8.4,9.7
1557989126,5/16/2019 6:45:25:87,1.10723402,0.18148938,0.04,-0.040185,0,1.17683,0.008761,-0.002127,0,0,0,0,0.01,0.01,nan,nan,nan,1,0.9,8.4,9.7
1557989126,5/16/2019 6:45:26:07,1.10723402,0.18148937,0.04,-0.035491,0,1.170736,0.007846,0.0012,0,0,0,0,0.01,0.01,nan,nan,nan,1,0.9,8.5,9.4
1557989126,5/16/2019 6:45:26:27,1.10723402,0.18148937,0.04,-0.040782,0,1.161263,0.008647,0.010705,0,0,0,0,0.01,0.01,nan,nan,nan,1,0.9,8.5,9.4
1557989126,5/16/2019 6:45:26:47,1.10723402,0.18148937,0.04,-0.04585,0,1.155293,0.010747,0.011484,0,0,0,0,0.01,0.01,nan,nan,nan,1,0.9,8.5,9.4
1557989127,5/16/2019 6:45:26:67,1.10723402,0.18148937,0.04,-0.036521,0,1.147053,0.01317,0.001524,0,0,0,0,0.01,0.01,nan,nan,nan,1,0.9,8.5,9.4
1557989127,5/16/2019 6:45:26:87,1.10723402,0.18148936,0.04,-0.040739,0,1.140578,0.012447,-0.007433,0,0,0,0,0.01,0.01,nan,nan,nan,1,0.9,8.5,9.4
1557989127,5/16/2019 6:45:27:07,1.10723402,0.18148936,0.04,-0.036257,0,1.13455,0.011107,-0.008819,0,0,0,0,0.01,0.01,nan,nan,nan,1,0.9,8.5,9.4
1557989127,5/16/2019 6:45:27:27,1.10723401,0.18148935,0.04,-0.044802,0,1.126056,0.010216,0.004385,0,0,0,0,0.01,0.01,nan,nan,nan,1,0.9,8.5,9.4
1557989127,5/16/2019 6:45:27:47,1.10723401,0.18148935,0.04,-0.03724,0,1.121643,0.010994,0.012908,0,0,0,0,0.01,0.01,nan,nan,nan,1,0.9,8.5,9.4
1557989128,5/16/2019 6:45:27:67,1.10723401,0.18148935,0.04,-0.024347,0,1.113924,0.011029,0.013676,0,0,0,0,0.01,0.01,nan,nan,nan,1,0.9,8.7,9.7
1557989128,5/16/2019 6:45:27:87,1.10723402,0.18148935,0.04,-0.032349,0,1.107931,0.008964,0.003369,0,0,0,0,0.01,0.01,nan,nan,nan,1,0.9,8.7,9.7
1557989128,5/16/2019 6:45:28:07,1.10723402,0.18148934,0.04,-0.0324,0,1.10178,0.005467,-0.006001,0,0,0,0,0.01,0.01,nan,nan,nan,1,0.9,8.7,9.7
1557989128,5/16/2019 6:45:28:27,1.10723402,0.18148934,0.03,-0.028521,0,1.097176,0.006601,-0.004516,0,0,0,0,0.01,0.01,nan,nan,nan,1,0.9,8.7,9.7
1557989128,5/16/2019 6:45:28:47,1.10723402,0.18148934,0.03,-0.037388,0,1.092022,0.01232,0.003534,0,0,0,0,0,0.01,nan,nan,nan,1,0.9,8.7,9.7
1557989129,5/16/2019 6:45:28:67,1.10723402,0.18148934,0.03,-0.027945,0,1.087003,0.018061,0.010823,0,0,0,0,0,0.01,nan,nan,nan,1,0.9,8.4,9.5
1557989129,5/16/2019 6:45:28:87,1.10723402,0.18148934,0.04,-0.03374,0,1.083575,0.017727,0.012423,0,0,0,0,0,0.01,nan,nan,nan,1,0.9,8.4,9.5
1557989129,5/16/2019 6:45:29:07,1.10723402,0.18148933,0.04,-0.029551,0,1.078404,0.012572,0.009089,0,0,0,0,0,0.01,nan,nan,nan,1,0.9,8.4,9.5
1557989129,5/16/2019 6:45:29:27,1.10723402,0.18148933,0.04,-0.024623,0,1.07201,0.005239,0.00252,0,0,0,0,0,0.01,nan,nan,nan,1,0.9,8.4,9.5
1557989129,5/16/2019 6:45:29:47,1.10723402,0.18148933,0.04,-0.027875,0,1.068146,0.004256,-0.000489,0,0,0,0,0,0.01,nan,nan,nan,1,0.9,8.4,9.5
1557989130,5/16/2019 6:45:29:67,1.10723402,0.18148932,0.04,-0.024843,0,1.063888,0.009233,-0.001118,0,0,0,0,0,0.01,nan,nan,nan,1,0.9,8.5,9.7
1557989130,5/16/2019 6:45:29:87,1.10723402,0.18148932,0.03,-0.026977,0,1.059384,0.015627,0.001325,0,0,0,0,0,0.01,nan,nan,nan,1,0.9,8.5,9.7
1557989130,5/16/2019 6:45:30:07,1.10723402,0.18148932,0.03,-0.03711,0,1.05604,0.017511,0.004729,0,0,0,0,0,0.01,nan,nan,nan,1,0.9,8.5,9.7
1557989130,5/16/2019 6:45:30:27,1.10723401,0.18148932,0.05,-0.022973,0,1.05043,0.013089,0.008176,0,0,0,0,0,0.01,nan,nan,nan,1,0.9,8.5,9.7
1557989130,5/16/2019 6:45:30:47,1.10723401,0.18148932,0.04,-0.035839,0,1.0464,0.00791,0.005551,0,0,0,0,0,0.01,nan,nan,nan,1,0.9,8.5,9.7
1557989131,5/16/2019 6:45:30:67,1.10723401,0.18148931,0.05,-0.024562,0,1.041409,0.00536,0.0013,0,0,0,0,0,0.01,nan,nan,nan,1,0.9,8.4,9.7
1557989131,5/16/2019 6:45:30:87,1.10723401,0.18148931,0.05,-0.033513,0,1.032819,0.011471,0.002288,0,0,0,0,0,0.01,nan,nan,nan,1,0.9,8.4,9.7
1557989131,5/16/2019 6:45:31:07,1.10723401,0.18148931,0.03,-0.034494,0,1.028719,0.015919,0.006719,0,0,0,0,0,0.01,nan,nan,nan,1,0.9,8.4,9.7
1557989131,5/16/2019 6:45:31:27,1.10723401,0.18148931,0.05,-0.041918,0,1.023256,0.017889,0.009695,0,0,0,0,0,0.01,nan,nan,nan,1,0.9,8.4,9.7
1557989131,5/16/2019 6:45:31:47,1.10723402,0.1814893,0.05,-0.032135,0,1.017669,0.014575,0.007464,0,0,0,0,0,0.01,nan,nan,nan,1,0.9,8.4,9.7
1557989132,5/16/2019 6:45:31:67,1.10723402,0.1814893,0.05,-0.042915,0,1.012793,0.009477,0.002325,0,0,0,0,0,0.01,nan,nan,nan,1,0.9,8.5,9.7
1557989132,5/16/2019 6:45:31:87,1.10723402,0.1814893,0.05,-0.049407,0,1.005653,0.006476,-0.00117,0,0,0,0,0,0.01,nan,nan,nan,1,0.9,8.5,9.7
1557989132,5/16/2019 6:45:32:07,1.10723402,0.1814893,0.05,-0.04302,0,0.998927,0.009018,0.001691,0,0,0,0,0,0.01,nan,nan,nan,1,0.9,8.5,9.7
1557989132,5/16/2019 6:45:32:27,1.10723402,0.1814893,0.05,-0.038857,0,0.991029,0.013943,0.007539,0,0,0,0,0,0.01,nan,nan,nan,1,0.9,8.5,9.7
1557989132,5/16/2019 6:45:32:47,1.10723402,0.1814893,0.06,-0.040263,0,0.984897,0.014196,0.007366,0,0,0,0,0,0.01,nan,nan,nan,1,0.9,8.5,9.7
1557989133,5/16/2019 6:45:32:67,1.10723402,0.1814893,0.05,-0.04484,0,0.97818,0.010044,0.002929,0,0,0,0,0,0.01,nan,nan,nan,1,0.9,8.4,9.7
1557989133,5/16/2019 6:45:32:87,1.10723402,0.1814893,0.05,-0.029065,0,0.972439,0.006936,-0.000168,0,0,0,0,0,0.01,nan,nan,nan,1,0.9,8.4,9.7
1557989133,5/16/2019 6:45:33:07,1.10723402,0.18148929,0.06,-0.036234,0,0.967617,0.00841,0.001572,0,0,0,0,0,0.01,nan,nan,nan,1,0.9,8.4,9.7
1557989133,5/16/2019 6:45:33:27,1.10723402,0.18148929,0.06,-0.044602,0,0.960498,0.012126,0.007744,0,0,0,0,0,0.01,nan,nan,nan,1,0.9,8.4,9.7
1557989133,5/16/2019 6:45:33:47,1.10723402,0.18148929,0.05,-0.047627,0,0.951996,0.013669,0.011057,0,0,0,0,0,0.01,nan,nan,nan,1,0.9,8.4,9.7
1557989134,5/16/2019 6:45:33:67,1.10723402,0.18148929,0.07,-0.031965,0,0.94665,0.010754,0.005695,0,0,0,0,0,0.01,nan,nan,nan,1,0.9,8.4,9.3
1557989134,5/16/2019 6:45:33:87,1.10723403,0.18148929,0.06,-0.036764,0,0.93964,0.004867,-0.005234,0,0,0,0,0,0.01,nan,nan,nan,1,0.9,8.4,9.3
1557989134,5/16/2019 6:45:34:07,1.10723404,0.18148929,0.06,-0.034513,0,0.93442,0.004618,-0.00386,0,0,0,0,0,0.01,nan,nan,nan,1,0.9,8.4,9.3
1557989134,5/16/2019 6:45:34:27,1.10723404,0.18148928,0.05,-0.04007,0,0.927335,0.009956,0.00726,0,0,0,0,0,0.01,nan,nan,nan,1,0.9,8.4,9.3
1557989134,5/16/2019 6:45:34:47,1.10723405,0.18148928,0.05,-0.030251,0,0.922126,0.014926,0.013249,0,0,0,0,0,0.01,nan,nan,nan,1,0.9,8.4,9.3
1557989135,5/16/2019 6:45:34:67,1.10723405,0.18148928,0.06,-0.048178,0,0.916396,0.015925,0.00977,0,0,0,0,0,0.01,nan,nan,nan,1,0.9,8.4,9.1
1557989135,5/16/2019 6:45:34:87,1.10723406,0.18148928,0.07,-0.024503,0,0.908525,0.010252,-0.001905,0,0,0,0,0,0.01,nan,nan,nan,1,0.9,8.4,9.1
1557989135,5/16/2019 6:45:35:07,1.10723406,0.18148928,0.06,-0.026062,0,0.905277,0.006028,-0.004945,0,0,0,0,0,0.01,nan,nan,nan,1,0.9,8.4,9.1
1557989135,5/16/2019 6:45:35:27,1.10723406,0.18148928,0.06,-0.033657,0,0.900286,0.004301,0.000011,0,0,0,0,0,0.01,nan,nan,nan,1,0.9,8.4,9.1
1557989135,5/16/2019 6:45:35:47,1.10723406,0.18148927,0.06,-0.032299,0,0.894446,0.009756,0.007189,0,0,0,0,0,0.01,nan,nan,nan,1,0.9,8.4,9.1
1557989136,5/16/2019 6:45:35:67,1.10723406,0.18148927,0.07,-0.034183,0,0.889602,0.014613,0.010552,0,0,0,0,0,0.01,nan,nan,nan,1,0.9,8.4,9.1
1557989136,5/16/2019 6:45:35:87,1.10723407,0.18148927,0.07,-0.033608,0,0.883487,0.011595,0.004742,0,0,0,0,0,0.01,nan,nan,nan,1,0.9,8.4,9.1
1557989136,5/16/2019 6:45:36:07,1.10723407,0.18148927,0.05,-0.021356,0,0.880897,0.006737,-0.000558,0,0,0,0,0,0.01,nan,nan,nan,1,0.9,8.4,9.1
1557989136,5/16/2019 6:45:36:27,1.10723408,0.18148926,0.06,-0.035524,0,0.877182,0.002872,-0.004358,0,0,0,0,0,0.01,nan,nan,nan,1,0.9,8.4,9.1
1557989136,5/16/2019 6:45:36:47,1.10723408,0.18148926,0.07,-0.035922,0,0.872387,0.008453,0.002625,0,0,0,0,0,0.01,nan,nan,nan,1,0.9,8.4,9.1
1557989137,5/16/2019 6:45:36:67,1.10723409,0.18148926,0.06,-0.033424,0,0.868216,0.015178,0.010077,0,0,0,0,0,0.01,nan,nan,nan,1,0.9,8.5,9.4
1557989137,5/16/2019 6:45:36:87,1.10723409,0.18148926,0.06,-0.024645,0,0.86309,0.012469,0.009475,0,0,0,0,0,0.01,nan,nan,nan,1,0.9,8.5,9.4
1557989137,5/16/2019 6:45:37:07,1.1072341,0.18148925,0.07,-0.017317,0,0.860123,0.003936,0.003772,0,0,0,0,0,0.01,nan,nan,nan,1,0.9,8.5,9.4
1557989137,5/16/2019 6:45:37:27,1.1072341,0.18148925,0.06,-0.015652,0,0.856205,0.000521,-0.002787,0,0,0,0,0,0.01,nan,nan,nan,1,0.9,8.5,9.4
1557989137,5/16/2019 6:45:37:47,1.10723411,0.18148925,0.06,-0.019262,0,0.853867,0.008673,-0.002127,0,0,0,0,0,0.01,nan,nan,nan,1,0.9,8.5,9.4
1557989138,5/16/2019 6:45:37:67,1.10723411,0.18148925,0.07,-0.029328,0,0.851716,0.016465,0.002065,0,0,0,0,0,0.01,nan,nan,nan,1,0.9,8.4,9.3
1557989138,5/16/2019 6:45:37:87,1.10723411,0.18148925,0.07,-0.022881,0,0.847057,0.018262,0.009925,0,0,0,0,0,0.01,nan,nan,nan,1,0.9,8.4,9.3
1557989138,5/16/2019 6:45:38:07,1.10723411,0.18148925,0.06,-0.024683,0,0.844356,0.011114,0.010179,0,0,0,0,0,0.01,nan,nan,nan,1,0.9,8.4,9.3
1557989138,5/16/2019 6:45:38:27,1.10723412,0.18148924,0.06,-0.023999,0,0.842029,0.00297,0.006044,0,0,0,0,0,0.01,nan,nan,nan,1,0.9,8.4,9.3
1557989138,5/16/2019 6:45:38:47,1.10723412,0.18148924,0.07,-0.031983,0,0.839118,0.000107,0.000634,0,0,0,0,0,0.01,nan,nan,nan,1,0.9,8.4,9.3
1557989139,5/16/2019 6:45:38:67,1.10723412,0.18148924,0.06,-0.026174,0,0.837474,0.005533,-0.00019,0,0,0,0,0,0.01,nan,nan,nan,1,0.9,8.4,9.4
1557989139,5/16/2019 6:45:38:87,1.10723412,0.18148923,0.06,-0.01438,0,0.834438,0.015223,0.0026,0,0,0,0,0,0.01,nan,nan,nan,1,0.9,8.4,9.4
1557989139,5/16/2019 6:45:39:07,1.10723412,0.18148923,0.06,-0.026315,0,0.832579,0.017372,0.005654,0,0,0,0,0,0.01,nan,nan,nan,1,0.9,8.4,9.4
1557989139,5/16/2019 6:45:39:27,1.10723413,0.18148923,0.05,-0.0168,0,0.830471,0.015165,0.00859,0,0,0,0,0,0.01,nan,nan,nan,1,0.9,8.4,9.4
1557989139,5/16/2019 6:45:39:47,1.10723413,0.18148923,0.06,-0.029565,0,0.827992,0.009982,0.008946,0,0,0,0,0,0.01,nan,nan,nan,1,0.9,8.4,9.4
1557989140,5/16/2019 6:45:39:67,1.10723413,0.18148922,0.06,-0.018974,0,0.826014,0.006644,0.006469,0,0,0,0,0,0.01,nan,nan,nan,1,0.9,8.4,9.4
1557989140,5/16/2019 6:45:39:87,1.10723413,0.18148922,0.06,-0.019678,0,0.823607,0.008287,0.002579,0,0,0,0,0,0.01,nan,nan,nan,1,0.9,8.4,9.4
1557989140,5/16/2019 6:45:40:07,1.10723413,0.18148921,0.06,-0.023693,0,0.821319,0.011406,0.001012,0,0,0,0,0,0.01,nan,nan,nan,1,0.9,8.4,9.4
1557989140,5/16/2019 6:45:40:27,1.10723413,0.18148921,0.08,-0.015374,0,0.819261,0.012002,0.000298,0,0,0,0,0,0.01,nan,nan,nan,1,0.9,8.4,9.4
1557989140,5/16/2019 6:45:40:47,1.10723414,0.18148921,0.06,-0.014582,0,0.817462,0.009301,0.001641,0,0,0,0,0,0.01,nan,nan,nan,1,0.9,8.4,9.4
1557989141,5/16/2019 6:45:40:67,1.10723414,0.1814892,0.05,-0.015558,0,0.816462,0.007628,0.004833,0,0,0,0,0,0.01,nan,nan,nan,1,0.9,8.4,9.4
1557989141,5/16/2019 6:45:40:87,1.10723414,0.1814892,0.06,-0.018423,0,0.814978,0.009271,0.009464,0,0,0,0,0,0.01,nan,nan,nan,1,0.9,8.4,9.4
1557989141,5/16/2019 6:45:41:07,1.10723414,0.18148919,0.07,-0.017048,0,0.812115,0.014932,0.010644,0,0,0,0,0,0.01,nan,nan,nan,1,0.9,8.4,9.4
1557989141,5/16/2019 6:45:41:27,1.10723414,0.18148919,0.06,-0.020491,0,0.809978,0.01632,0.006745,0,0,0,0,0,0.01,nan,nan,nan,1,0.9,8.4,9.4
1557989141,5/16/2019 6:45:41:47,1.10723414,0.18148919,0.07,-0.017852,0,0.807626,0.010154,0.000335,0,0,0,0,0,0.01,nan,nan,nan,1,0.9,8.4,9.4
1557989142,5/16/2019 6:45:41:67,1.10723414,0.18148919,0.06,-0.010433,0,0.806807,0.004183,-0.001503,0,0,0,0,0,0.01,nan,nan,nan,1,0.9,8.4,9.4
1557989142,5/16/2019 6:45:41:87,1.10723414,0.18148918,0.05,-0.016906,0,0.805486,0.002904,0.00219,0,0,0,0,0,0.01,nan,nan,nan,1,0.9,8.4,9.4
1557989142,5/16/2019 6:45:42:07,1.10723414,0.18148918,0.06,-0.007711,0,0.804806,0.007535,0.008042,0,0,0,0,0,0.01,nan,nan,nan,1,0.9,8.4,9.1
1557989142,5/16/2019 6:45:42:27,1.10723414,0.18148918,0.06,-0.021063,0,0.803955,0.013813,0.008955,0,0,0,0,0,0.01,nan,nan,nan,1,0.9,8.4,9.1
1557989142,5/16/2019 6:45:42:47,1.10723414,0.18148917,0.06,-0.014544,0,0.802929,0.016416,0.004749,0,0,0,0,0,0.01,nan,nan,nan,1,0.9,8.4,9.1
1557989143,5/16/2019 6:45:42:67,1.10723415,0.18148917,0.05,-0.016489,0,0.801049,0.0134,-0.001624,0,0,0,0,0,0.01,nan,nan,nan,1,0.9,8.4,9.1
1557989143,5/16/2019 6:45:42:87,1.10723415,0.18148917,0.05,-0.034657,0,0.797215,0.010589,0.003191,0,0,0,0,0,0.01,nan,nan,nan,1,0.9,8.4,9.1
1557989143,5/16/2019 6:45:43:07,1.10723415,0.18148917,0.07,-0.01018,0,0.795785,-0.001422,0.003649,0,0,0,0,0,0.01,nan,nan,nan,1,0.9,8.6,9.2
1557989143,5/16/2019 6:45:43:27,1.10723415,0.18148917,0.04,0.016078,0,0.798037,-0.017317,-0.004793,0,0,0,0,0,0.01,nan,nan,nan,1,0.9,8.6,9.2
1557989143,5/16/2019 6:45:43:47,1.10723415,0.18148918,0.04,0.037162,0,0.803431,-0.023066,-0.013305,0,0,0,0,0,0.01,nan,nan,nan,1,0.9,8.6,9.2
1557989144,5/16/2019 6:45:43:67,1.10723415,0.18148918,0.08,0.053057,0,0.814289,-0.024076,-0.01937,0,0,0,0,0,0.01,nan,nan,nan,1,0.9,8.6,9.2
1557989144,5/16/2019 6:45:43:87,1.10723414,0.18148919,0.12,0.049959,1.929287,0.825261,-0.022627,-0.017605,0,0,0,0,0,0.01,nan,nan,nan,1,0.9,8.6,9.2
1557989144,5/16/2019 6:45:44:07,1.10723414,0.18148919,0.16,0.026172,2.324953,0.83739,-0.023268,-0.009638,0,0,0,0,0,0.01,nan,nan,nan,1,0.9,8.4,9.3
1557989144,5/16/2019 6:45:44:27,1.10723414,0.1814892,0.16,0.017836,2.438225,0.842654,-0.02566,-0.005898,0,0,0,0,0,0.01,nan,nan,nan,1,0.9,8.4,9.3
1557989144,5/16/2019 6:45:44:47,1.10723413,0.18148921,0.17,0.052536,2.61398,0.852477,-0.021443,-0.013825,0,0,0,0,0,0.01,nan,nan,nan,1,0.9,8.4,9.3
1557989145,5/16/2019 6:45:44:67,1.10723413,0.18148921,0.19,0.05002,2.697581,0.863461,-0.02163,-0.020651,0,0,0,0,0,0.01,nan,nan,nan,1,0.9,8.4,9.3
1557989145,5/16/2019 6:45:44:87,1.10723413,0.18148922,0.2,0.073064,2.730044,0.880122,-0.024708,-0.020094,0,0,0,0,0,0.01,nan,nan,nan,1,0.9,8.4,9.3
1557989145,5/16/2019 6:45:45:07,1.10723412,0.18148923,0.22,0.091178,2.709973,0.897592,-0.025408,-0.015128,0,0,0,0,0,0.01,nan,nan,nan,1,0.9,8.4,9.4
1557989145,5/16/2019 6:45:45:27,1.10723412,0.18148924,0.23,0.085177,2.686062,0.912457,-0.022216,-0.012234,0,0,0,0,0,0.01,nan,nan,nan,1,0.9,8.4,9.4
1557989145,5/16/2019 6:45:45:47,1.10723411,0.18148925,0.24,0.101575,2.659009,0.93107,-0.019842,-0.012289,0,0,0,0,0,0.01,nan,nan,nan,1,0.9,8.4,9.4
1557989146,5/16/2019 6:45:45:67,1.10723411,0.18148926,0.23,0.124949,2.653773,0.96218,-0.021301,-0.014073,0,0,0,0,0,0.01,nan,nan,nan,1,0.9,8.4,9.4
1557989146,5/16/2019 6:45:45:87,1.1072341,0.18148926,0.21,0.130475,2.689378,0.984633,-0.021244,-0.015163,0,0,0,0,0,0.01,nan,nan,nan,1,0.9,8.4,9.4
1557989146,5/16/2019 6:45:46:07,1.10723409,0.18148927,0.25,0.124823,2.785546,1.015962,-0.020314,-0.016725,0,0,0,0,0,0.01,nan,nan,nan,1,0.9,8.5,9.4
1557989146,5/16/2019 6:45:46:27,1.10723409,0.18148927,0.2,0.08018,2.851868,1.035656,-0.013817,-0.009533,0,0,0,0,0,0.01,nan,nan,nan,1,0.9,8.5,9.4
1557989146,5/16/2019 6:45:46:47,1.10723408,0.18148928,0.23,0.072722,2.803871,1.049289,0.001475,0.005728,0,0,0,0,0,0.01,nan,nan,nan,1,0.9,8.5,9.4
1557989147,5/16/2019 6:45:46:67,1.10723407,0.18148928,0.21,0.052072,2.763554,1.064972,0.01465,0.009863,0,0,0,0,0,0.01,nan,nan,nan,1,0.9,8.5,9.4
1557989147,5/16/2019 6:45:46:87,1.10723407,0.18148929,0.15,0.022927,2.705784,1.071918,0.014654,0.000039,0,0,0,0,0,0.01,nan,nan,nan,1,0.9,8.5,9.4
1557989147,5/16/2019 6:45:47:07,1.10723406,0.18148929,0.15,0.029766,2.627419,1.077801,0.007134,-0.005365,0,0,0,0,0,0.01,nan,nan,nan,1,0.9,8.4,9.4
1557989147,5/16/2019 6:45:47:27,1.10723406,0.1814893,0.15,0.033923,2.653424,1.083211,0.001586,-0.000696,0,0,0,0,0,0.01,nan,nan,nan,1,0.9,8.4,9.4
1557989147,5/16/2019 6:45:47:47,1.10723406,0.1814893,0.14,0.045303,2.743832,1.093967,0.001018,0.002834,0,0,0,0,0,0.01,nan,nan,nan,1,0.9,8.4,9.4
1557989148,5/16/2019 6:45:47:67,1.10723406,0.1814893,0.12,0.047041,2.823768,1.104908,0.002052,0.003597,0,0,0,0,0,0.01,nan,nan,nan,1,0.9,8.4,9.4
1557989148,5/16/2019 6:45:47:87,1.10723405,0.1814893,0.1,0.011197,2.823768,1.110591,-0.002425,0.007991,0,0,0,0,0,0.01,nan,nan,nan,1,0.9,8.4,9.4
1557989148,5/16/2019 6:45:48:07,1.10723405,0.18148931,0.1,0.016701,2.823768,1.114076,-0.007563,0.008347,0,0,0,0,0,0.01,nan,nan,nan,1,0.9,8.4,9.4
1557989148,5/16/2019 6:45:48:27,1.10723404,0.18148931,0.07,-0.000777,2.823768,1.116325,-0.005727,0.007554,0,0,0,0,0,0.01,nan,nan,nan,1,0.9,8.4,9.4
1557989148,5/16/2019 6:45:48:47,1.10723404,0.1814893,0.06,-0.013188,2.823768,1.116279,0.0019,0.010045,0,0,0,0,0,0.01,nan,nan,nan,1,0.9,8.4,9.4
1557989149,5/16/2019 6:45:48:67,1.10723404,0.1814893,0.05,-0.007456,2.823768,1.115338,0.003643,0.010164,0,0,0,0,0,0.01,nan,nan,nan,1,0.9,8.4,9.4
1557989149,5/16/2019 6:45:48:87,1.10723404,0.1814893,0.02,-0.006153,2.823768,1.115523,0.003626,0.006248,0,0,0,0,0,0.01,nan,nan,nan,1,0.9,8.4,9.4
1557989149,5/16/2019 6:45:49:07,1.10723404,0.1814893,0.02,-0.029797,2.823768,1.113616,0.011905,0.006447,0,0,0,0,0,0.01,nan,nan,nan,1,0.9,8.4,9.3
1557989149,5/16/2019 6:45:49:27,1.10723403,0.1814893,0.01,-0.020413,2.823768,1.110367,0.012908,0.011407,0,0,0,0,0,0.01,nan,nan,nan,1,0.9,8.4,9.3
1557989149,5/16/2019 6:45:49:47,1.10723403,0.1814893,0.01,-0.022594,2.823768,1.108256,0.008347,0.013516,0,0,0,0,0,0.01,nan,nan,nan,1,0.9,8.4,9.3
1557989150,5/16/2019 6:45:49:67,1.10723403,0.1814893,0.03,-0.004823,0,1.108551,0.003067,0.012554,0,0,0,0,0,0.01,nan,nan,nan,1,0.9,8.4,9.3
1557989150,5/16/2019 6:45:49:87,1.10723403,0.1814893,0.02,-0.014242,0,1.108495,0.006953,0.010464,0,0,0,0,0,0.01,nan,nan,nan,1,0.9,8.4,9.3
1557989150,5/16/2019 6:45:50:07,1.10723403,0.1814893,0.02,-0.004399,0,1.109041,0.012693,0.006595,0,0,0,0,0,0.01,nan,nan,nan,1,0.9,8.4,9.3
1557989150,5/16/2019 6:45:50:27,1.10723403,0.1814893,0.03,-0.000966,0,1.110228,0.014191,0.002155,0,0,0,0,0,0,nan,nan,nan,1,0.9,8.4,9.3
1557989150,5/16/2019 6:45:50:47,1.10723403,0.1814893,0.02,-0.00166,0,1.111521,0.008379,0.006259,0,0,0,0,0,0,nan,nan,nan,1,0.9,8.4,9.3
1557989151,5/16/2019 6:45:50:67,1.10723402,0.1814893,0.04,0.008833,0,1.113368,0.006114,0.012416,0,0,0,0,0,0,nan,nan,nan,1,0.5,8.4,9.3
1557989151,5/16/2019 6:45:50:87,1.10723402,0.1814893,0.04,0.013048,0,1.115938,0.009492,0.013162,0,0,0,0,0,0,nan,nan,nan,1,0.5,8.4,9.3
1557989151,5/16/2019 6:45:51:07,1.10723402,0.1814893,0.02,0.01336,0,1.118544,0.01421,0.00898,0,0,0,0,0,0,nan,nan,nan,0.4,0.5,8.4,9.2
1557989151,5/16/2019 6:45:51:27,1.10723402,0.1814893,0.02,0.009696,0,1.1214,0.015313,0.003105,0,0,0,0,0,0,nan,nan,nan,0.4,0.5,8.4,9.2
1557989151,5/16/2019 6:45:51:47,1.10723402,0.1814893,0.04,0.006113,0,1.123672,0.012586,0.002455,0,0,0,0,0,0,nan,nan,nan,0.4,0.5,8.4,9.2
1557989152,5/16/2019 6:45:51:67,1.10723402,0.1814893,0.05,0.011912,0,1.127842,0.009143,0.005024,0,0,0,0,0,0,nan,nan,nan,0.4,0.5,8.4,9.2
1557989152,5/16/2019 6:45:51:87,1.10723402,0.1814893,0.05,0.012567,0,1.131842,0.00861,0.005515,0,0,0,0,0,0,nan,nan,nan,0.4,0.5,8.4,9.2
1557989152,5/16/2019 6:45:52:07,1.10723401,0.1814893,0.05,0.015892,0,1.137234,0.007054,0.002289,0,0,0,0,0,0,nan,nan,nan,-0.1,-0.1,8.4,9.2
1557989152,5/16/2019 6:45:52:27,1.10723401,0.1814893,0.04,0.016007,0,1.141962,0.006437,-0.002992,0,0,0,0,0,0,nan,nan,nan,-0.1,-0.1,8.4,9.2
1557989152,5/16/2019 6:45:52:47,1.10723401,0.1814893,0.04,0.021039,0,1.14545,0.008382,-0.00277,0,0,0,0,0,0,nan,nan,nan,-0.1,-0.1,8.4,9.2
1557989153,5/16/2019 6:45:52:67,1.10723401,0.1814893,0.05,0.031717,0,1.149912,0.013767,0.00498,0,0,0,0,0,0,nan,nan,nan,-0.1,-0.1,8.4,9.2
1557989153,5/16/2019 6:45:52:87,1.10723401,0.1814893,0.05,0.018342,0,1.155863,0.015721,0.013981,0,0,0,0,0,0,nan,nan,nan,-0.1,-0.1,8.4,9.2
1557989153,5/16/2019 6:45:53:07,1.10723401,0.1814893,0.04,0.026982,0,1.159558,0.012197,0.010203,0,0,0,0,0,0,nan,nan,nan,-0.1,-0.1,8.4,9.2
1557989153,5/16/2019 6:45:53:27,1.10723401,0.18148929,0.03,0.01065,0,1.164621,0.006555,-0.002069,0,0,0,0,0,0,nan,nan,nan,-0.1,-0.1,8.4,9.2
1557989153,5/16/2019 6:45:53:47,1.107234,0.18148929,0.03,0.011487,0,1.167305,0.006387,-0.00361,0,0,0,0,0,0,nan,nan,nan,-0.1,-0.1,8.4,9.2
1557989154,5/16/2019 6:45:53:67,1.107234,0.18148929,0.04,0.021132,0,1.171719,0.00985,0.000761,0,0,0,0,0,0,nan,nan,nan,-0.1,-0.1,8.4,9.5
1557989154,5/16/2019 6:45:53:87,1.107234,0.18148928,0.05,0.021795,0,1.175842,0.011652,0.004236,0,0,0,0,0,0,nan,nan,nan,-0.1,-0.1,8.4,9.5
1557989154,5/16/2019 6:45:54:07,1.107234,0.18148928,0.04,0.016139,0,1.179482,0.010606,0.005493,0,0,0,0,0,0,nan,nan,nan,-0.1,-0.1,8.4,9.5
1557989154,5/16/2019 6:45:54:27,1.107234,0.18148928,0.03,0.017019,0,1.183593,0.007594,0.00434,0,0,0,0,0,0,nan,nan,nan,-0.1,-0.1,8.4,9.5
1557989154,5/16/2019 6:45:54:47,1.10723399,0.18148928,0.03,0.020769,0,1.186654,0.008189,0.001907,0,0,0,0,0,0,nan,nan,nan,-0.1,-0.1,8.4,9.5
1557989155,5/16/2019 6:45:54:67,1.10723399,0.18148928,0.04,0.01391,0,1.190887,0.010872,0.000886,0,0,0,0,0,0,nan,nan,nan,-0.1,-0.1,8.4,9.7
1557989155,5/16/2019 6:45:54:87,1.10723399,0.18148928,0.04,0.007906,0,1.193986,0.013076,0.003752,0,0,0,0,0,0,nan,nan,nan,-0.1,-0.1,8.4,9.7
1557989155,5/16/2019 6:45:55:07,1.10723399,0.18148928,0.05,0.002709,0,1.196194,0.013151,0.00515,0,0,0,0,0,0,nan,nan,nan,-0.1,-0.1,8.4,9.7
1557989155,5/16/2019 6:45:55:27,1.10723398,0.18148928,0.05,0.009374,0,1.200183,0.010223,0.003076,0,0,0,0,0,0,nan,nan,nan,-0.1,-0.1,8.4,9.7
1557989155,5/16/2019 6:45:55:47,1.10723397,0.18148928,0.04,0.002562,0,1.20233,0.008782,0.001685,0,0,0,0,0,0,nan,nan,nan,-0.1,-0.1,8.4,9.7
1557989156,5/16/2019 6:45:55:67,1.10723397,0.18148928,0.04,0.005841,0,1.204629,0.006669,0.001452,0,0,0,0,0,0,nan,nan,nan,-0.1,-0.1,8.5,9.6
1557989156,5/16/2019 6:45:55:87,1.10723397,0.18148928,0.04,0.005836,0,1.207844,0.0066,0.003898,0,0,0,0,0,0,nan,nan,nan,-0.1,-0.1,8.5,9.6
1557989156,5/16/2019 6:45:56:07,1.10723396,0.18148928,0.04,0.000837,0,1.210078,0.009458,0.005932,0,0,0,0,0,0,nan,nan,nan,-0.1,-0.1,8.5,9.6
1557989156,5/16/2019 6:45:56:27,1.10723396,0.18148928,0.02,0.009444,0,1.212634,0.013576,0.007159,0,0,0,0,0,0,nan,nan,nan,-0.1,-0.1,8.5,9.6
1557989156,5/16/2019 6:45:56:47,1.10723396,0.18148928,0.03,0.002936,0,1.214186,0.014121,0.00549,0,0,0,0,0,0,nan,nan,nan,-0.1,-0.1,8.5,9.6
1557989157,5/16/2019 6:45:56:67,1.10723396,0.18148928,0.03,0.013067,0,1.216474,0.011027,0.002509,0,0,0,0,0,0,nan,nan,nan,-0.1,-0.1,8.4,9.6
1557989157,5/16/2019 6:45:56:87,1.10723395,0.18148928,0.03,0.015867,0,1.217843,0.007822,0.003768,0,0,0,0,0,0,nan,nan,nan,-0.1,-0.1,8.4,9.6
1557989157,5/16/2019 6:45:57:07,1.10723395,0.18148928,0.03,0.009375,0,1.219034,0.006859,0.005399,0,0,0,0,0,0,nan,nan,nan,-0.1,-0.1,8.4,9.6
1557989157,5/16/2019 6:45:57:27,1.10723395,0.18148928,0.03,0.00621,0,1.222129,0.007759,0.005465,0,0,0,0,0,0,nan,nan,nan,-0.1,-0.1,8.4,9.6
1557989157,5/16/2019 6:45:57:47,1.10723395,0.18148927,0.03,0.002763,0,1.223715,0.009758,0.003988,0,0,0,0,0,0,nan,nan,nan,-0.1,-0.1,8.4,9.6
1557989158,5/16/2019 6:45:57:67,1.10723394,0.18148927,0.03,0.011526,0,1.225418,0.011294,0.004175,0,0,0,0,0,0,nan,nan,nan,0,-0.1,8.4,9.4
1557989158,5/16/2019 6:45:57:87,1.10723394,0.18148927,0.03,0.006161,0,1.226809,0.011702,0.00682,0,0,0,0,0.17,0.24,nan,nan,nan,0,-0.1,8.4,9.4
1557989158,5/16/2019 6:45:58:07,1.10723394,0.18148927,0.04,0.002802,0,1.22773,0.009673,0.006375,0,0,0,0,0.17,0.24,nan,nan,nan,0,0.3,8.4,9.4
1557989158,5/16/2019 6:45:58:27,1.10723394,0.18148927,0.03,0.009574,0,1.229597,0.006054,0.001395,0,0,0,0,0.343,0.373,nan,nan,nan,0,0.3,8.4,9.4
1557989158,5/16/2019 6:45:58:47,1.10723394,0.18148927,0.02,-0.000862,0,1.230648,0.005015,0.000397,0,0,0,0,0.343,0.373,nan,nan,nan,0,0.3,8.4,9.4
1557989159,5/16/2019 6:45:58:67,1.10723393,0.18148927,0.03,0.000452,0,1.231565,0.006805,0.003393,10.1,13.7,18.5,18.8,0.343,0.373,nan,nan,nan,0.7,0.3,8.4,9.4
1557989159,5/16/2019 6:45:58:87,1.10723393,0.18148928,0.04,0.001573,0,1.232745,0.01042,0.007855,10.1,13.7,18.5,18.8,0.343,0.373,nan,nan,nan,0.7,0.3,8.4,9.4
1557989159,5/16/2019 6:45:59:07,1.10723393,0.18148928,0.04,0.004482,0,1.234095,0.012699,0.009733,104.3,105.3,17.2,18,0.343,0.373,nan,nan,nan,0.7,5.4,8.4,9.4
1557989159,5/16/2019 6:45:59:27,1.10723393,0.18148928,0.06,0.002781,0,1.234672,0.016132,0.005747,104.3,105.3,17.2,18,0,0,nan,nan,nan,0.7,5.4,8.4,9.4
1557989159,5/16/2019 6:45:59:47,1.10723393,0.18148929,0.11,-0.000239,0,1.235693,0.024449,-0.001256,104.3,105.3,17.2,18,0,0,nan,nan,nan,0.7,5.4,8.4,9.4
1557989160,5/16/2019 6:45:59:67,1.10723392,0.18148931,0.17,0.008994,2.142043,1.238221,0.025393,-0.005532,369.3,369,16.9,16.9,0,0,nan,nan,nan,22.9,5.4,8.4,9.6
1557989160,5/16/2019 6:45:59:87,1.10723392,0.18148933,0.23,0.000433,1.785821,1.240932,0.010763,-0.002919,369.3,369,16.9,16.9,0,0,nan,nan,nan,22.9,5.4,8.4,9.6
1557989160,5/16/2019 6:46:00:07,1.10723392,0.18148935,0.27,0.002336,1.780236,1.242347,0.000679,0.003719,0,0,17.2,17.6,0,0,nan,nan,nan,22.9,22.9,8.4,9.6
1557989160,5/16/2019 6:46:00:27,1.10723392,0.18148937,0.21,-0.004696,1.716706,1.243417,0.000029,0.012961,0,0,17.2,17.6,0,0,nan,nan,nan,22.9,22.9,8.4,9.6
1557989160,5/16/2019 6:46:00:47,1.10723392,0.18148939,0.21,0.003868,1.728225,1.244569,0.01419,0.015216,0,0,17.2,17.6,0,0,nan,nan,nan,22.9,22.9,8.4,9.6
1557989161,5/16/2019 6:46:00:67,1.10723392,0.18148941,0.22,-0.003516,1.74498,1.245602,0.020758,0.007367,0,0,17.2,17.6,0,0,nan,nan,nan,4.3,22.9,8.4,9.7
1557989161,5/16/2019 6:46:00:87,1.10723392,0.18148942,0.2,-0.00469,1.693842,1.246912,0.017746,-0.006689,0,0,17.2,17.6,0,0,nan,nan,nan,4.3,22.9,8.4,9.7
1557989161,5/16/2019 6:46:01:07,1.10723391,0.18148944,0.22,-0.00584,1.684941,1.247446,0.013781,-0.006158,0,0,17.2,17.6,0,0,nan,nan,nan,4.3,0.9,8.4,9.7
1557989161,5/16/2019 6:46:01:27,1.10723391,0.18148945,0.21,-0.009186,1.753009,1.247274,0.01329,0.005976,0,0,17.2,17.6,0,0,nan,nan,nan,4.3,0.9,8.4,9.7
1557989161,5/16/2019 6:46:01:47,1.10723391,0.18148946,0.18,-0.004159,1.740268,1.247333,0.01405,0.012935,0,0,17.2,17.6,0,0,nan,nan,nan,4.3,0.9,8.4,9.7
1557989162,5/16/2019 6:46:01:67,1.1072339,0.18148948,0.19,-0.012791,1.734159,1.246861,0.01172,0.011349,0,0,17.2,17.6,0,0,nan,nan,nan,1,0.9,8.4,9.7
1557989162,5/16/2019 6:46:01:87,1.1072339,0.18148949,0.2,-0.011249,1.720022,1.245901,0.010472,0.004128,0,0,17.2,17.6,0,0,nan,nan,nan,1,0.9,8.4,9.7
1557989162,5/16/2019 6:46:02:07,1.1072339,0.18148951,0.18,-0.015745,1.643926,1.243722,0.013051,-0.00201,0,0,17.2,17.6,0,0,nan,nan,nan,1,0.9,8.4,9.7
1557989162,5/16/2019 6:46:02:27,1.1072339,0.18148952,0.18,-0.014168,1.700998,1.242562,0.018263,0.002412,0,0,17.2,17.6,0,0,nan,nan,nan,1,0.9,8.4,9.7
1557989162,5/16/2019 6:46:02:47,1.1072339,0.18148953,0.19,-0.00967,1.76383,1.241668,0.017179,0.007915,0,0,17.2,17.6,0,0,nan,nan,nan,1,0.9,8.4,9.7
1557989163,5/16/2019 6:46:02:67,1.1072339,0.18148955,0.17,-0.004587,1.708852,1.240427,0.01099,0.009738,0,0,17.2,17.6,0,0,nan,nan,nan,1,0.9,8.4,9.7
1557989163,5/16/2019 6:46:02:87,1.1072339,0.18148956,0.18,-0.011271,1.703965,1.238887,0.006012,0.00554,0,0,17.2,17.6,0,0,nan,nan,nan,1,0.9,8.4,9.7
1557989163,5/16/2019 6:46:03:07,1.1072339,0.18148957,0.17,-0.00369,1.672374,1.238781,0.005902,-0.001801,0,0,17.2,17.6,0,0,nan,nan,nan,1,0.9,8.4,9.7
1557989163,5/16/2019 6:46:03:27,1.10723389,0.18148958,0.17,-0.01213,1.71339,1.238209,0.009573,-0.004927,0,0,17.2,17.6,0,0.01,nan,nan,nan,1,0.9,8.4,9.7
1557989163,5/16/2019 6:46:03:47,1.10723389,0.1814896,0.18,-0.015552,1.675691,1.236781,0.01339,0.000484,0,0,17.2,17.6,0,0.01,nan,nan,nan,1,0.9,8.4,9.7
1557989164,5/16/2019 6:46:03:67,1.10723389,0.18148961,0.18,-0.011191,1.663648,1.23515,0.012991,0.007825,0,0,17.2,17.6,0,0.01,nan,nan,nan,1,0.9,8.4,9.5
1557989164,5/16/2019 6:46:03:87,1.10723389,0.18148962,0.19,-0.014433,1.706583,1.23315,0.012257,0.011564,0,0,17.2,17.6,0,0.01,nan,nan,nan,1,0.9,8.4,9.5
1557989164,5/16/2019 6:46:04:07,1.10723389,0.18148963,0.16,-0.01043,1.697333,1.231311,0.011985,0.007796,0,0,17.2,17.6,0,0.01,nan,nan,nan,1,0.9,8.4,9.5
1557989164,5/16/2019 6:46:04:27,1.10723389,0.18148964,0.15,-0.010935,1.645846,1.229553,0.008699,-0.000921,0,0,17.2,17.6,0,0.01,nan,nan,nan,1,0.9,8.4,9.5
1557989164,5/16/2019 6:46:04:47,1.10723389,0.18148965,0.16,-0.023633,1.630487,1.22746,0.00532,-0.003003,0,0,17.2,17.6,0,0.01,nan,nan,nan,1,0.9,8.4,9.5
1557989165,5/16/2019 6:46:04:67,1.10723389,0.18148966,0.17,-0.010546,1.697856,1.226284,0.003355,-0.00012,0,0,17.2,17.6,0,0.01,nan,nan,nan,1,0.9,8.4,9.5
1557989165,5/16/2019 6:46:04:87,1.10723388,0.18148967,0.16,-0.00867,1.717404,1.225796,0.003691,0.004527,0,0,17.2,17.6,0,0.01,nan,nan,nan,1,0.9,8.4,9.5
1557989165,5/16/2019 6:46:05:07,1.10723388,0.18148969,0.15,-0.010522,1.662077,1.223615,0.010034,0.007313,0,0,17.2,17.6,0,0.01,nan,nan,nan,1,0.9,8.4,9.4
1557989165,5/16/2019 6:46:05:27,1.10723388,0.1814897,0.16,-0.019174,1.641482,1.221267,0.01403,0.0059,0,0,17.2,17.6,0,0.01,nan,nan,nan,1,0.9,8.4,9.4
1557989165,5/16/2019 6:46:05:47,1.10723388,0.18148971,0.16,-0.022409,1.648813,1.218092,0.015359,0.003881,0,0,17.2,17.6,0,0.01,nan,nan,nan,1,0.9,8.4,9.4
1557989166,5/16/2019 6:46:05:67,1.10723388,0.18148971,0.15,-0.021844,1.629963,1.21576,0.009453,0.003548,0,0,17.2,17.6,0,0.01,nan,nan,nan,1,0.9,8.4,9.4
1557989166,5/16/2019 6:46:05:87,1.10723388,0.18148972,0.16,-0.014441,1.646195,1.214184,0.002817,0.004062,0,0,17.2,17.6,0,0.01,nan,nan,nan,1,0.9,8.4,9.4
1557989166,5/16/2019 6:46:06:07,1.10723388,0.18148973,0.15,-0.017848,1.645496,1.210513,0.000346,0.003854,0,0,17.2,17.6,0,0.01,nan,nan,nan,1,0.9,8.5,9.3
1557989166,5/16/2019 6:46:06:27,1.10723388,0.18148974,0.14,-0.018282,1.678134,1.208308,0.005925,0.002533,0,0,17.2,17.6,0,0.01,nan,nan,nan,1,0.9,8.5,9.3
1557989166,5/16/2019 6:46:06:47,1.10723388,0.18148975,0.14,-0.021704,1.697333,1.205485,0.011356,0.001452,0,0,17.2,17.6,0,0.01,nan,nan,nan,1,0.9,8.5,9.3
1557989167,5/16/2019 6:46:06:67,1.10723388,0.18148976,0.14,-0.026124,1.70379,1.202698,0.009734,0.003324,0,0,17.2,17.6,0,0.01,nan,nan,nan,1,0.9,8.5,9.3
1557989167,5/16/2019 6:46:06:87,1.10723388,0.18148976,0.14,-0.033207,1.662601,1.198428,0.004201,0.004665,0,0,17.2,17.6,0,0.01,nan,nan,nan,1,0.9,8.5,9.3
1557989167,5/16/2019 6:46:07:07,1.10723388,0.18148977,0.15,-0.024551,1.612859,1.195525,0.004667,0.003394,0,0,17.2,17.6,0,0.01,nan,nan,nan,1,0.9,8.4,9.3
1557989167,5/16/2019 6:46:07:27,1.10723388,0.18148978,0.15,-0.017059,1.674643,1.193252,0.008082,0.002039,0,0,17.2,17.6,0,0.01,nan,nan,nan,1,0.9,8.4,9.3
1557989167,5/16/2019 6:46:07:47,1.10723388,0.18148978,0.13,-0.014418,1.639388,1.18971,0.010742,0.002749,0,0,17.2,17.6,0,0.01,nan,nan,nan,1,0.9,8.4,9.3
1557989168,5/16/2019 6:46:07:67,1.10723388,0.18148979,0.13,-0.02477,1.635199,1.187215,0.009765,0.004063,0,0,17.2,17.6,0,0.01,nan,nan,nan,1,0.9,8.4,9.3
1557989168,5/16/2019 6:46:07:87,1.10723388,0.1814898,0.14,-0.026437,1.603608,1.184072,0.007311,0.004823,0,0,17.2,17.6,0,0.01,nan,nan,nan,1,0.9,8.4,9.3
1557989168,5/16/2019 6:46:08:07,1.10723388,0.1814898,0.13,-0.015779,1.597151,1.181477,0.007478,0.0035,0,0,17.2,17.6,0,0.01,nan,nan,nan,1,0.9,9.1,9.3
1557989168,5/16/2019 6:46:08:27,1.10723388,0.1814898,0.12,-0.017506,1.597151,1.178968,0.008229,0.001378,0,0,17.2,17.6,0,0.01,nan,nan,nan,1,0.9,9.1,9.3
1557989168,5/16/2019 6:46:08:47,1.10723388,0.18148981,0.13,-0.018902,1.623505,1.175176,0.006726,0.000312,0,0,17.2,17.6,0,0.01,nan,nan,nan,1,0.9,9.1,9.3
1557989169,5/16/2019 6:46:08:67,1.10723388,0.18148982,0.12,-0.015323,1.622982,1.173664,0.005585,0.00254,0,0,17.2,17.6,0,0.01,nan,nan,nan,1,0.9,9.1,9.3
1557989169,5/16/2019 6:46:08:87,1.10723388,0.18148982,0.12,-0.022603,1.622982,1.172255,0.006133,0.004961,0,0,17.2,17.6,0,0.01,nan,nan,nan,1,0.9,9.1,9.3
1557989169,5/16/2019 6:46:09:07,1.10723388,0.18148983,0.11,-0.013268,1.622982,1.169631,0.010551,0.003399,0,0,17.2,17.6,0,0.01,nan,nan,nan,1,0.9,8.4,9.3
1557989169,5/16/2019 6:46:09:27,1.10723388,0.18148983,0.13,-0.019175,1.58633,1.167415,0.01124,-0.0003,0,0,17.2,17.6,0,0.01,nan,nan,nan,1,0.9,8.4,9.3
1557989169,5/16/2019 6:46:09:47,1.10723388,0.18148984,0.12,-0.017054,1.58633,1.165885,0.009078,-0.00157,0,0,17.2,17.6,0,0.01,nan,nan,nan,1,0.9,8.4,9.3
1557989170,5/16/2019 6:46:09:67,1.10723388,0.18148984,0.11,-0.0101,1.58633,1.164074,0.005637,0.004244,0,0,17.2,17.6,0.01,0.01,nan,nan,nan,1,0.9,8.4,9.3
1557989170,5/16/2019 6:46:09:87,1.10723388,0.18148985,0.11,-0.004479,1.58633,1.163684,0.006786,0.008607,0,0,17.2,17.6,0.01,0.01,nan,nan,nan,1,0.9,8.4,9.3
1557989170,5/16/2019 6:46:10:07,1.10723388,0.18148985,0.1,-0.010477,1.58633,1.163425,0.009753,0.005668,0,0,17.2,17.6,0.01,0.01,nan,nan,nan,1,0.9,8.6,9.4
1557989170,5/16/2019 6:46:10:27,1.10723388,0.18148985,0.09,0.006171,1.58633,1.164232,0.010021,-0.000694,0,0,17.2,17.6,0.01,0.01,nan,nan,nan,1,0.9,8.6,9.4
1557989170,5/16/2019 6:46:10:47,1.10723388,0.18148986,0.1,0.007776,1.58633,1.165758,0.007031,-0.005525,0,0,17.2,17.6,0.01,0.01,nan,nan,nan,1,0.9,8.6,9.4
1557989171,5/16/2019 6:46:10:67,1.10723387,0.18148986,0.09,0.020557,1.58633,1.170263,0.001915,-0.005183,0,0,17.2,17.6,0.01,0.01,nan,nan,nan,1,0.9,8.6,9.4
1557989171,5/16/2019 6:46:10:87,1.10723387,0.18148986,0.09,0.025781,1.58633,1.175786,0.002634,0.002176,0,0,17.2,17.6,0.01,0.01,nan,nan,nan,1,0.9,8.6,9.4
1557989171,5/16/2019 6:46:11:07,1.10723387,0.18148986,0.07,0.031909,1.58633,1.184029,0.008429,0.00948,0,0,17.2,17.6,0.01,0.01,nan,nan,nan,1,0.9,8.4,9.4
1557989171,5/16/2019 6:46:11:27,1.10723387,0.18148987,0.06,0.024509,0,1.190692,0.013181,0.007813,0,0,17.2,17.6,0.01,0.01,nan,nan,nan,1,0.9,8.4,9.4
